City_ID,City,Lat,Lng,Max Temp,Humidity,Cloudiness,Wind Speed,Country,Date
0,tura,25.5198,90.2201,28.78,56,38,2.03,IN,1730351944
1,longyearbyen,78.2186,15.6401,-7.09,73,75,1.03,SJ,1730351946
2,bilibino,68.0546,166.4372,-14.47,91,100,3.31,RU,1730351947
3,grytviken,-54.2811,-36.5092,0.06,86,31,4.14,GS,1730351948
4,ancud,-41.8697,-73.8203,8.22,95,15,1.76,CL,1730351949
5,nar'yan-mar,67.6713,53.087,0.18,95,100,8.41,RU,1730351888
6,tchintabaraden,15.8969,5.7985,24.02,16,100,4.21,NE,1730351951
7,happy valley-goose bay,53.3168,-60.3315,4.17,87,100,9.26,CA,1730351952
8,port alfred,-33.5906,26.891,16.21,91,45,2.02,ZA,1730351953
9,bredasdorp,-34.5322,20.0403,15.38,74,4,2.47,ZA,1730351954
10,lihue,21.9789,-159.3672,25.77,82,100,7.72,US,1730351929
11,kapa'a,22.0752,-159.319,26.18,85,100,7.72,US,1730351957
12,moron,-34.6534,-58.6198,22.94,76,0,6.71,AR,1730351958
13,holualoa,19.6228,-155.9522,24.91,81,40,4.12,US,1730351959
14,vorkuta,67.5,64.0,-8.21,94,86,2.99,RU,1730351960
15,crane,31.3974,-102.3501,18.14,15,5,3.31,US,1730351961
16,anadyr,64.75,177.4833,-0.72,74,20,12.0,RU,1730351962
17,boli,45.7667,130.5167,13.69,33,62,1.6,CN,1730351963
18,puerto ayora,-0.7393,-90.3518,20.31,98,46,2.68,EC,1730351964
19,neustadt an der waldnaab,49.7117,12.0872,9.06,93,100,0.0,DE,1730351966
20,port-aux-francais,-49.35,70.2167,4.18,84,23,11.33,TF,1730351967
21,waitangi,-43.9535,-176.5597,12.68,82,41,2.24,NZ,1730351968
22,ushuaia,-54.8,-68.3,5.81,70,40,2.57,AR,1730351969
23,pyhajarvi,67.0701,27.2176,-3.43,81,56,1.59,FI,1730351970
24,gadzhiyevo,69.2551,33.3362,-0.64,78,85,9.09,RU,1730351971
25,jamestown,42.097,-79.2353,17.8,63,0,3.6,US,1730352070
26,la ronge,55.1001,-105.2842,-1.86,69,75,4.63,CA,1730352071
27,college,64.8569,-147.8028,-14.75,79,40,3.09,US,1730352072
28,isangel,-19.55,169.2667,27.06,65,40,4.12,VU,1730352073
29,iqaluit,63.7506,-68.5145,-1.15,92,100,4.12,CA,1730352074
30,carbonear,47.7332,-53.2148,0.56,84,56,3.72,CA,1730352076
31,walvis bay,-22.9575,14.5053,13.53,94,100,3.09,NA,1730352077
32,la passe,45.5549,-0.8967,14.1,85,0,4.05,FR,1730352078
33,huron,41.1501,-82.5499,19.64,68,100,7.33,US,1730352080
34,mirnyy,62.5353,113.9611,-11.86,89,82,0.88,RU,1730352081
35,keflavik,64.0049,-22.5624,3.24,75,40,8.75,IS,1730352083
36,geraldton,-28.7667,114.6,35.23,26,6,7.72,AU,1730352084
37,newman,37.3138,-121.0208,13.91,56,5,1.34,US,1730352086
38,olonkinbyen,70.9221,-8.7187,-5.46,48,100,7.71,SJ,1730352087
39,adamstown,-25.066,-130.1015,21.09,75,98,11.33,PN,1730352088
40,yonan-up,37.9089,126.1611,18.21,51,4,2.33,KP,1730352089
41,aykhal,66.0,111.5,-10.47,94,98,2.06,RU,1730352091
42,marsh harbour,26.5412,-77.0636,25.43,64,46,11.93,BS,1730352092
43,manokwari,-0.8667,134.0833,29.17,70,50,2.59,ID,1730352094
44,val-d'or,48.1002,-77.7828,7.05,100,100,4.63,CA,1730352095
45,ar ruways,24.1103,52.7306,28.85,58,75,4.41,AE,1730352096
46,petropavlovsk-kamchatsky,53.0452,158.6483,1.33,41,40,5.0,RU,1730352097
47,enewetak,11.3474,162.3373,28.72,76,52,5.97,MH,1730352098
48,uirauna,-6.5183,-38.4122,22.89,71,12,2.81,BR,1730352099
49,rongelap,11.1635,166.8941,28.55,78,83,5.79,MH,1730352100
50,huanta,-12.9333,-74.25,18.06,68,97,1.25,PE,1730352101
51,fort bragg,35.139,-79.006,17.85,90,0,2.57,US,1730352103
52,wladyslawowo,54.7909,18.4009,8.85,90,100,6.98,PL,1730352104
53,puerto natales,-51.7236,-72.4875,8.18,96,100,1.85,CL,1730352105
54,harper,4.375,-7.7169,24.39,91,96,2.67,LR,1730352106
55,fale old settlement,-9.3852,-171.2468,28.8,68,100,6.03,TK,1730352107
56,ukiah,39.1502,-123.2078,11.87,92,100,1.54,US,1730352108
57,lelystad,52.5083,5.475,12.77,95,6,1.34,NL,1730352109
58,miasskoye,55.2784,61.8905,1.49,82,23,4.79,RU,1730352111
59,wailua homesteads,22.0669,-159.378,25.44,86,100,7.72,US,1730352113
60,mount pearl,47.5166,-52.7813,0.53,85,0,3.6,CA,1730352114
61,uturoa,-16.7333,-151.4333,25.37,71,82,7.56,PF,1730352115
62,invercargill,-46.4,168.35,11.68,87,100,2.24,NZ,1730352084
63,mbandaka,0.0487,18.2603,21.49,98,100,2.45,CD,1730352117
64,ribeira grande,38.5167,-28.7,20.99,91,29,6.71,PT,1730352118
65,sinop,41.7711,34.8709,8.37,91,12,1.39,TR,1730352119
66,blackmans bay,-43.0167,147.3167,15.41,50,50,1.79,AU,1730352120
67,inhambane,-23.865,35.3833,25.99,65,75,4.12,MZ,1730352122
68,bikenibeu village,1.3673,173.1241,30.98,58,40,0.51,KI,1730352123
69,hawaiian paradise park,19.5933,-154.9731,23.28,98,100,2.57,US,1730352124
70,hanceville,34.0607,-86.7675,20.67,78,73,4.26,US,1730352125
71,umm al quwain city,25.5647,55.5552,29.18,60,0,1.65,AE,1730352126
72,aasiaat,68.7098,-52.8699,-13.02,77,100,5.86,GL,1730352127
73,priob'ye,62.5206,65.5964,-1.62,89,74,4.85,RU,1730352128
74,karratha,-20.7377,116.8463,37.92,25,5,6.51,AU,1730352129
75,yellowknife,62.456,-114.3525,-9.69,79,75,3.09,CA,1730351977
76,dumai,1.6833,101.45,31.98,60,93,2.43,ID,1730352132
77,viedma,-40.8135,-62.9967,21.61,60,100,6.85,AR,1730352133
78,kapuskasing,49.4169,-82.4331,3.05,100,100,3.09,CA,1730352134
79,kodiak,57.79,-152.4072,3.73,70,100,0.0,US,1730352135
80,talnakh,69.4865,88.3972,-12.85,95,100,3.78,RU,1730352136
81,jaguaruna,-28.615,-49.0256,20.78,79,69,6.03,BR,1730352137
82,haiku-pauwela,20.9219,-156.3051,24.01,87,75,8.49,US,1730352138
83,harstad,68.799,16.5293,-1.03,77,99,6.11,NO,1730352139
84,martinsicuro,42.8811,13.9145,15.07,99,0,2.84,IT,1730352141
85,bethel,41.3712,-73.414,17.23,80,100,0.89,US,1730352142
86,stanley,54.868,-1.6985,12.01,91,75,3.6,GB,1730352143
87,peno,56.9262,32.7426,2.02,77,43,5.69,RU,1730352144
88,edinburgh of the seven seas,-37.0676,-12.3116,13.1,79,11,7.29,SH,1730352145
89,hamilton,39.1834,-84.5333,20.02,78,40,5.66,US,1730352146
90,hermanus,-34.4187,19.2345,16.56,76,4,4.2,ZA,1730352147
91,korsakov,46.6328,142.7813,10.91,65,42,7.09,RU,1730352148
92,sos'va,59.1766,61.8558,1.4,83,95,3.8,RU,1730352149
93,margate,51.3813,1.3862,13.16,91,71,1.34,GB,1730352151
94,east london,-33.0153,27.9116,16.52,72,75,3.6,ZA,1730352152
95,conduaga,8.862,117.4893,30.65,66,93,4.94,PH,1730352153
96,rauma,61.1272,21.5113,6.75,66,97,9.37,FI,1730352154
97,port macquarie,-31.4333,152.9167,25.6,60,34,2.24,AU,1730352155
98,itaituba,-4.2761,-55.9836,25.63,76,92,1.21,BR,1730352156
99,sagua la grande,22.8067,-80.0756,25.34,78,97,6.94,CU,1730352157
100,kirkwood,38.5834,-90.4068,22.08,70,25,1.79,US,1730352158
101,ponta delgada,37.7333,-25.6667,18.44,82,40,1.54,PT,1730352160
102,praia da vitoria,38.7333,-27.0667,19.14,88,75,5.04,PT,1730352162
103,georgetown,5.4112,100.3354,30.97,70,20,2.68,MY,1730351889
104,kavaratti,10.5669,72.642,27.49,66,23,0.92,IN,1730352164
105,akureyri,65.6835,-18.0878,3.96,65,100,3.6,IS,1730352165
106,papatowai,-46.5619,169.4708,12.68,81,100,4.45,NZ,1730352166
107,sitia,35.2,26.0986,17.94,61,1,12.48,GR,1730352168
108,narangba,-27.2,152.9667,26.89,71,42,4.28,AU,1730352169
109,nova vicosa,-17.8919,-39.3719,21.42,93,100,1.37,BR,1730352170
110,minas de marcona,-15.2119,-75.1103,12.84,83,28,1.94,PE,1730352172
111,nemuro,43.3236,145.575,11.54,60,6,7.51,JP,1730352173
112,whitehorse,60.7161,-135.0538,-3.57,92,75,1.03,CA,1730352174
113,padang,-0.9492,100.3543,30.03,69,43,2.81,ID,1730352175
114,aizpute,56.7167,21.6,6.88,71,99,2.53,LV,1730352177
115,ohara,35.25,140.3833,18.87,62,85,3.92,JP,1730352178
116,ingeniero jacobacci,-41.3427,-69.5448,14.41,44,1,3.6,AR,1730352179
117,tonj,7.2737,28.6822,25.09,73,100,1.03,SS,1730352180
118,isafjordur,66.0755,-23.124,-4.22,87,97,2.15,IS,1730352181
119,el granada,37.5027,-122.4694,14.5,78,100,4.12,US,1730352044
120,sodankyla,67.4167,26.6,-2.97,75,71,1.77,FI,1730352183
121,ventnor,50.5948,-1.2037,11.9,95,91,4.63,GB,1730352184
122,christchurch,-43.5333,172.6333,20.11,45,24,2.57,NZ,1730351710
123,bruntal,49.9884,17.4647,9.23,95,73,1.19,CZ,1730352187
124,howard springs,-12.497,131.047,28.82,74,98,3.69,AU,1730352188
125,port elizabeth,-33.918,25.5701,17.95,78,75,1.54,ZA,1730352190
126,arinos,-15.9169,-46.1056,20.46,95,100,1.03,BR,1730352191
127,berezovyy,51.6667,135.7,5.29,32,37,0.88,RU,1730352192
128,verkhnyaya sinyachikha,57.976,61.6673,1.73,74,96,3.42,RU,1730352193
129,sheridan,44.8333,-106.9173,1.76,88,0,0.0,US,1730352194
130,constantia,44.1833,28.65,11.5,66,37,2.29,RO,1730352196
131,breyten,-26.3018,29.987,13.18,71,65,3.89,ZA,1730352197
132,lorengau,-2.0226,147.2712,28.42,79,45,1.25,PG,1730352198
133,gereida,11.2811,25.1414,23.47,25,62,4.1,SD,1730352199
134,port-vila,-17.7338,168.3219,25.78,73,75,6.69,VU,1730352058
135,kolonia town,6.964,158.206,29.0,84,100,1.54,FM,1730352201
136,talakan,50.3167,130.3667,5.23,48,98,0.72,RU,1730352202
137,nabire,-3.3667,135.4833,31.87,58,58,2.95,ID,1730352203
138,mount gambier,-37.8333,140.7667,16.22,48,28,4.87,AU,1730352204
139,margaret river,-33.95,115.0667,20.79,63,82,4.44,AU,1730352206
140,zhanaozen,43.3,52.8,10.18,84,1,1.34,KZ,1730352207
141,kievka,50.2619,71.5514,2.32,99,100,4.57,KZ,1730352208
142,puerto baquerizo moreno,-0.9,-89.6,20.56,85,100,3.4,EC,1730352209
143,kotlas,61.2611,46.6556,0.76,97,100,3.09,RU,1730352210
144,kingston,17.997,-76.7936,26.76,83,20,0.51,JM,1730352211
145,codrington,-38.2667,141.9667,13.51,62,99,5.91,AU,1730352213
146,ilulissat,69.2167,-51.1,-6.99,32,40,10.29,GL,1730352214
147,qaqortoq,60.7167,-46.0333,-11.61,57,1,2.82,GL,1730352215
148,jacmel,18.2342,-72.5347,24.62,87,86,1.1,HT,1730352216
149,quzhou,28.9594,118.8686,18.87,81,100,3.89,CN,1730352217
150,island harbour,50.724,-1.2758,12.21,72,70,3.19,GB,1730352218
151,yanbu,24.0891,38.0637,27.02,47,20,1.54,SA,1730352219
152,port mathurin,-19.6833,63.4167,23.15,66,23,7.18,MU,1730352220
153,albany,42.6001,-73.9662,17.11,77,100,0.89,US,1730352221
154,tokar,18.4254,37.729,30.27,47,81,1.0,SD,1730352223
155,la'ie,21.6477,-157.9253,25.06,82,3,3.58,US,1730352224
156,kartaly,53.0522,60.6467,0.99,87,98,2.67,RU,1730352225
157,san patricio,28.017,-97.5169,25.97,88,1,4.75,US,1730352226
158,maun,-19.9833,23.4167,22.98,21,0,4.63,BW,1730352227
159,klyuchi,52.2667,79.1667,3.28,82,75,3.83,RU,1730352228
160,poteau,35.0537,-94.6236,25.88,69,100,10.8,US,1730352229
161,san carlos,9.6612,-68.5827,23.03,91,76,1.36,VE,1730352085
162,kisangani,0.5167,25.2,21.68,99,100,1.0,CD,1730352232
163,uray,60.1247,64.7758,0.76,86,100,4.27,RU,1730352233
164,lebu,-37.6167,-73.65,10.84,95,46,5.03,CL,1730352234
165,bratsk,56.1325,101.6142,-0.73,63,99,4.73,RU,1730352235
166,acarau,-2.8856,-40.12,25.01,80,70,5.65,BR,1730352236
167,vadso,70.0744,29.7487,-2.91,80,40,5.66,NO,1730352237
168,hithadhoo,-0.6,73.0833,27.4,63,56,1.2,MV,1730352238
169,kruisfontein,-34.0033,24.7314,14.73,73,0,2.08,ZA,1730352239
170,terra santa,-2.1042,-56.4869,26.27,62,42,1.55,BR,1730352241
171,kourou,5.1552,-52.6478,24.61,93,17,2.13,GF,1730352243
172,sao felix do xingu,-6.6447,-51.995,21.64,98,100,0.74,BR,1730352244
173,ust'-kulom,61.6864,53.6902,2.61,86,100,6.19,RU,1730352245
174,alofi,-19.0595,-169.9187,26.94,78,70,3.6,NU,1730352246
175,aral,40.5156,81.2636,14.89,32,26,2.95,CN,1730352247
176,zeya,53.75,127.2667,-0.04,61,100,1.12,RU,1730352248
177,brookings,44.3114,-96.7984,4.0,86,75,7.2,US,1730352241
178,vorgashor,67.5833,63.95,-8.28,95,88,3.23,RU,1730352251
179,dudinka,69.4058,86.1778,-10.24,95,100,5.57,RU,1730352252
180,verkhnevilyuysk,63.4453,120.3167,-16.04,88,92,0.23,RU,1730352253
181,barrouallie,13.2333,-61.2667,24.59,79,78,2.9,VC,1730352254
182,turpan,42.9333,89.1667,15.69,35,33,0.98,CN,1730352255
183,banchory,57.0517,-2.4882,8.05,99,100,2.33,GB,1730352256
184,remire-montjoly,4.9167,-52.2667,24.02,100,0,0.0,GF,1730352257
185,sidney,-33.8679,151.2073,24.63,68,75,6.69,AU,1730352236
186,funadhoo,6.15,73.2667,27.83,75,81,2.42,MV,1730352260
187,daru,-9.0763,143.2092,27.52,77,98,4.69,PG,1730352261
188,mananjary,-21.2167,48.3333,25.79,68,78,1.04,MG,1730352262
189,tiksi,71.6872,128.8694,-23.83,100,85,1.38,RU,1730352263
190,dapa,9.7594,126.0531,29.32,72,100,5.03,PH,1730352264
191,veraval,20.9,70.3667,30.84,50,4,3.2,IN,1730352265
192,lompoc,34.6391,-120.4579,10.51,86,100,2.68,US,1730352266
193,lazaro cardenas,17.9583,-102.2,25.84,87,68,1.44,MX,1730352267
194,timbiqui,2.7717,-77.6654,23.67,96,100,1.89,CO,1730352269
195,ishim,56.1128,69.4902,1.08,71,14,3.4,RU,1730352019
196,dalianwan,39.0286,121.695,22.02,40,0,2.0,CN,1730352271
197,xinyi,22.373,110.9475,28.86,36,70,4.41,CN,1730352272
198,bondo,3.8146,23.6866,20.86,99,100,0.39,CD,1730352273
199,chonchi,-42.6128,-73.8092,7.29,98,24,0.57,CL,1730352274
200,tari,-11.1105,14.3559,18.14,93,82,0.26,AO,1730352275
201,alaghsas,17.0187,8.0168,20.94,21,28,1.03,NE,1730352276
202,envira,-7.3,-70.2167,24.3,76,98,1.22,BR,1730352278
203,atafu village,-8.5421,-172.5159,28.43,67,99,5.77,TK,1730352279
204,udachny,66.4167,112.4,-14.02,94,95,1.61,RU,1730352280
205,princeville,45.7668,-61.2985,8.06,89,100,4.63,CA,1730352281
206,merizo village,13.2658,144.6691,31.31,81,7,7.92,GU,1730352282
207,cascais,38.6979,-9.4215,15.84,83,99,2.24,PT,1730352283
208,rio gallegos,-51.6226,-69.2181,11.03,76,0,4.12,AR,1730352284
209,melekeok village,7.4957,134.6367,31.31,70,75,3.6,PW,1730352285
210,beau vallon,-20.4189,57.6953,26.13,53,20,5.66,MU,1730352286
211,kharp,66.8014,65.8081,-5.97,97,99,1.24,RU,1730352288
212,moranbah,-22.0016,148.0466,34.52,15,51,0.55,AU,1730352289
213,qarazhal,48.0078,70.7903,7.05,66,100,8.95,KZ,1730352290
214,corinto,37.9407,22.9573,18.27,74,1,1.53,GR,1730352291
215,casimiro de abreu,-22.4806,-42.2042,17.62,93,2,1.36,BR,1730352292
216,cabo san lucas,22.8909,-109.9124,24.03,72,0,3.88,MX,1730352293
217,cooma,-36.2333,149.1333,21.56,20,99,5.88,AU,1730352294
218,nagqu,31.5,92.0,8.16,19,0,3.59,CN,1730352295
219,hammerfest,70.6634,23.6821,-0.75,93,100,7.72,NO,1730352296
220,egilsstadir,65.2653,-14.3948,-0.05,80,20,2.57,IS,1730352298
221,nowshahr,36.649,51.496,13.97,82,40,0.0,IR,1730352299
222,iskateley,67.6803,53.1512,0.21,94,100,8.35,RU,1730352300
223,huaiyuan chengguanzhen,32.9589,117.1657,21.71,44,0,4.91,CN,1730352301
224,tolanaro,-25.0319,46.9987,26.04,69,75,6.17,MG,1730352302
225,deqen,29.9618,90.7188,12.67,26,0,1.32,CN,1730352303
226,uzyn,49.8262,30.4149,11.37,81,100,6.5,UA,1730352304
227,tromso,69.6496,18.957,-0.99,86,75,5.66,NO,1730352305
228,arawa,-6.2132,155.5367,28.48,81,100,0.33,PG,1730352307
229,fortuna,40.5982,-124.1573,8.53,97,100,2.57,US,1730352308
230,mili,6.0815,171.735,28.55,68,75,0.77,MH,1730352309
231,yulinshi,38.2906,109.7494,10.83,86,100,2.72,CN,1730352310
232,bilmak,47.3624,36.6511,8.95,56,100,5.37,UA,1730352312
233,thompson,55.7435,-97.8558,-7.91,73,0,2.06,CA,1730352313
234,saynshand,44.8824,110.1163,6.87,36,83,6.73,MN,1730352315
235,saipan,15.1355,145.701,31.39,66,20,6.69,MP,1730352316
236,plouzane,48.3833,-4.6167,11.03,100,100,2.57,FR,1730352317
237,cidreira,-30.1811,-50.2056,20.32,84,65,10.37,BR,1730352318
238,st. john's,47.5649,-52.7093,0.99,83,0,3.6,CA,1730352320
239,umba,66.6871,34.3429,-0.04,76,95,6.74,RU,1730352321
240,masterton,-40.9597,175.6575,14.91,66,68,3.72,NZ,1730352322
241,pandan,14.0453,124.1694,29.41,75,100,6.24,PH,1730352325
242,huarmey,-10.0681,-78.1522,17.28,85,59,1.71,PE,1730352326
243,watton,53.9333,-0.45,11.64,93,100,5.14,GB,1730352327
244,alice springs,-23.7,133.8833,35.75,9,42,4.12,AU,1730352078
245,or yehuda,32.0311,34.8458,18.05,68,0,1.54,IL,1730352329
246,roye,49.7004,2.7896,10.37,94,4,2.27,FR,1730352330
247,tezpur,26.6333,92.8,26.06,79,68,1.23,IN,1730352331
248,tanumah,27.1,44.1333,21.07,70,36,8.0,SA,1730352332
249,saint-philippe,-21.3585,55.7679,22.72,70,68,5.37,RE,1730352334
250,ulladulla,-35.35,150.4667,17.17,77,98,4.7,AU,1730352335
251,tazovsky,67.4667,78.7,-5.52,94,100,4.64,RU,1730352336
252,lipsko,51.3396,12.3713,11.74,91,75,1.54,DE,1730352337
253,al qubbah,32.7616,22.2424,15.35,79,3,8.11,LY,1730352338
254,vilyuchinsk,52.9306,158.4028,2.15,66,17,8.1,RU,1730352339
255,yerofey pavlovich,53.9667,121.9667,-0.34,89,100,2.28,RU,1730352340
256,chernyshevskiy,63.0128,112.4714,-12.26,88,100,0.81,RU,1730352341
257,flying fish cove,-10.4217,105.6791,27.82,89,100,5.14,CX,1730352343
258,antigonish,45.6169,-61.9986,9.9,84,100,8.48,CA,1730352344
259,carnarvon,-24.8667,113.6333,29.91,49,0,5.74,AU,1730352345
260,prado,-17.3411,-39.2208,21.72,95,100,2.06,BR,1730352346
261,barra de santo antonio,-9.4047,-35.5072,24.73,78,33,4.54,BR,1730352347
262,lockwood,45.8191,-108.4149,3.94,65,0,3.6,US,1730352348
263,puli,23.9664,120.9695,23.69,97,100,3.33,TW,1730352349
264,stornoway,58.2093,-6.3865,12.98,88,100,8.75,GB,1730352350
265,luorong,24.4058,109.6086,27.97,32,4,6.72,CN,1730352352
266,tyukalinsk,55.8732,72.1967,0.76,68,20,2.62,RU,1730352353
267,cockburn town,21.4612,-71.1419,26.28,76,62,9.98,TC,1730352354
268,fortaleza,-3.7227,-38.5247,26.79,78,75,5.14,BR,1730352355
269,chibougamau,49.9168,-74.3659,4.79,100,100,4.12,CA,1730352356
270,qamdo,31.1667,97.2333,9.56,37,52,2.1,CN,1730352357
271,sitka,57.0531,-135.33,6.94,76,0,2.06,US,1730352358
272,hasaki,35.7333,140.8333,18.86,53,82,3.25,JP,1730352359
273,bengkulu,-3.8004,102.2655,28.86,69,60,2.85,ID,1730352360
274,alesund,62.4723,6.1549,9.07,93,75,6.69,NO,1730352362
275,buala,-8.145,159.5921,27.95,78,100,1.77,SB,1730352363
276,sisimiut,66.9395,-53.6735,-7.71,58,50,6.71,GL,1730352364
277,argostolion,38.1811,20.489,16.53,49,1,1.78,GR,1730352365
278,richards bay,-28.783,32.0377,19.83,75,69,5.04,ZA,1730352366
279,kulhudhuffushi,6.6221,73.07,27.96,74,100,2.07,MV,1730352367
280,al kharijah,25.4514,30.5464,16.83,57,0,2.71,EG,1730352368
281,albertina,-22.2008,-46.6158,17.53,82,85,2.26,BR,1730352369
282,malax,62.9423,21.5731,3.88,70,0,3.09,FI,1730352371
283,ulanhot,46.0833,122.0833,17.06,36,2,4.84,CN,1730352372
284,kebili,33.7044,8.969,21.06,82,90,7.22,TN,1730352373
285,sokoni,-6.4333,39.55,26.34,83,98,4.13,TZ,1730352374
286,chilecito,-29.1619,-67.4974,24.81,44,3,3.39,AR,1730352375
287,ivins,37.1686,-113.6794,8.62,47,9,0.89,US,1730352080
288,olds,51.7834,-114.102,-2.72,81,21,1.2,CA,1730352377
289,sihanoukville,10.6093,103.5296,31.97,66,40,4.12,KH,1730352378
290,port lincoln,-34.7333,135.8667,17.94,62,34,5.1,AU,1730352379
291,tazacorte,28.629,-17.9293,17.54,68,0,3.09,ES,1730352381
292,kirakira,-10.4544,161.9205,27.72,81,61,1.33,SB,1730352382
293,summerlin south,36.1027,-115.3811,9.35,35,0,1.49,US,1730352326
294,baracoa,20.3467,-74.4958,25.04,86,65,5.0,CU,1730352384
295,mejit,10.2753,170.8646,28.47,76,93,5.34,MH,1730352385
296,colby,39.3958,-101.0524,1.03,100,0,5.14,US,1730352257
297,kill devil hills,36.0307,-75.676,18.32,88,0,2.57,US,1730352387
298,barcelos,41.5388,-8.6151,17.06,67,95,4.0,PT,1730352388
299,meadow lakes,61.6247,-149.6011,0.14,76,0,0.89,US,1730352390
300,changji,44.0167,87.3167,8.44,66,48,4.0,CN,1730352391
301,preobrazheniye,42.9019,133.9064,13.92,63,92,5.31,RU,1730352392
302,oum hadjer,13.2954,19.6966,22.31,21,9,3.5,TD,1730352393
303,choyr,46.3611,108.3611,3.62,49,26,6.64,MN,1730352394
304,avarua,-21.2078,-159.775,24.03,73,40,6.17,CK,1730352395
305,carutapera,-1.195,-46.02,24.82,81,29,2.48,BR,1730352396
306,pajapan,18.25,-94.7,22.48,92,5,2.02,MX,1730352397
307,punta arenas,-53.15,-70.9167,8.06,81,75,2.57,CL,1730352398
308,yafran,32.0633,12.5286,19.48,60,11,3.48,LY,1730352400
309,dakhla,23.6848,-15.958,19.43,72,100,7.27,EH,1730352401
310,kailua-kona,19.6406,-155.9956,26.98,80,40,4.12,US,1730352402
311,louny,50.357,13.7967,11.92,92,100,1.79,CZ,1730352403
312,vilyuysk,63.7553,121.6247,-16.73,89,89,0.29,RU,1730352404
313,west island,-12.1568,96.8225,28.99,70,71,6.17,CC,1730352405
314,ostersund,63.1792,14.6357,3.12,87,20,4.12,SE,1730352406
315,tame,6.461,-71.73,23.09,84,97,1.62,CO,1730352407
316,antsiranana,-12.2787,49.2917,28.42,54,20,6.17,MG,1730352409
317,odda,60.0691,6.5457,5.09,100,100,5.04,NO,1730352410
318,aksu,41.1231,80.2644,13.49,37,24,2.67,CN,1730352411
319,shenjiamen,29.9576,122.298,21.43,96,100,4.84,CN,1730352412
320,bushehr,28.9684,50.8385,23.05,38,75,4.12,IR,1730352413
321,cova figueira,14.8905,-24.2934,19.79,81,100,3.84,CV,1730352414
322,lesnoy,57.6198,63.0784,0.7,73,98,3.78,RU,1730352415
323,nadi,-17.8,177.4167,26.0,78,75,4.12,FJ,1730352416
324,poyarkovo,49.6,128.6833,8.55,51,99,3.12,RU,1730352417
325,nuku'alofa,-21.1333,-175.2,26.19,94,75,2.06,TO,1730352419
326,gaspra,44.4333,34.1,12.24,80,66,1.36,UA,1730352420
327,sao raimundo nonato,-9.0153,-42.6994,25.1,39,53,0.66,BR,1730352421
328,greymouth,-42.4667,171.2,13.9,77,98,3.12,NZ,1730352422
329,yung shue wan,22.2333,114.1167,29.89,55,88,9.15,HK,1730352423
330,susuman,62.7833,148.1667,-14.61,89,100,2.2,RU,1730352424
331,san juan de miraflores,-12.1629,-76.9635,17.87,83,100,2.28,PE,1730352425
332,alotau,-10.3069,150.4462,27.78,66,100,2.52,PG,1730352426
333,singkil,-7.9855,111.4161,35.69,39,64,2.6,ID,1730352429
334,jaciara,-15.9653,-54.9683,22.56,91,47,0.76,BR,1730352430
335,chulakkurgan,43.765,69.1814,10.93,39,0,3.88,KZ,1730352431
336,yeniseysk,58.4497,92.1703,0.97,85,99,0.14,RU,1730352432
337,hakkari,37.5833,44.1667,-1.12,86,40,0.51,TR,1730352433
338,lensk,60.7253,114.9278,-6.69,89,98,1.05,RU,1730352434
339,san antonio,29.4241,-98.4936,25.24,83,75,5.14,US,1730352435
340,luganville,-15.5333,167.1667,25.87,84,90,3.06,VU,1730352437
341,piti village,13.4626,144.6933,31.49,74,40,5.66,GU,1730352438
342,lichinga,-13.3128,35.2406,22.05,60,20,5.66,MZ,1730352439
343,yokadouma,3.5167,15.05,20.33,95,100,0.37,CM,1730352440
344,kilju,40.9642,129.3278,18.1,53,98,3.49,KP,1730352441
345,lahti,59.9911,30.1597,3.1,71,6,6.63,RU,1730352442
346,kupang,-10.1667,123.5833,34.32,59,75,6.17,ID,1730352443
347,kijang,35.2442,129.2139,20.85,59,100,4.96,KR,1730352444
348,pisco,-13.7,-76.2167,15.57,88,98,1.03,PE,1730352446
349,klaksvik,62.2266,-6.589,7.47,94,100,4.81,FO,1730352447
350,jebba,9.1333,4.8333,23.33,61,29,0.53,NG,1730352448
351,morinville,53.8001,-113.652,-0.79,95,0,3.6,CA,1730352449
352,pedro juan caballero,-22.5472,-55.7333,23.15,54,15,3.92,PY,1730352450
353,ola,59.5833,151.2833,-6.73,58,99,8.18,RU,1730352451
354,ghat,24.9647,10.1728,19.95,34,6,0.76,LY,1730352452
355,nampula,-15.1165,39.2666,25.97,69,20,6.17,MZ,1730352453
356,vernon,50.2581,-119.2691,8.2,72,100,1.54,CA,1730352454
357,flin flon,54.7682,-101.865,-4.56,66,72,2.0,CA,1730352456
358,san antonio de pale,-1.4014,5.6325,25.56,82,81,3.4,GQ,1730352457
359,lantapan,7.9978,125.0278,27.3,63,100,1.19,PH,1730352458
360,borogontsy,62.6683,131.1683,-17.1,82,79,0.84,RU,1730352459
361,summerside,46.3959,-63.7876,10.07,93,100,10.29,CA,1730352460
362,ouro sogui,15.6,-13.3167,30.1,41,36,3.19,SN,1730352462
363,fenghua,29.6563,121.4064,19.94,94,100,3.0,CN,1730352463
364,arraial do cabo,-22.9661,-42.0278,22.08,83,11,2.26,BR,1730352465
365,phan rang-thap cham,11.5667,108.9833,30.48,63,100,3.77,VN,1730352466
366,moose jaw,50.4001,-105.5344,4.14,60,49,4.63,CA,1730352467
367,zouerate,22.7187,-12.4521,22.68,33,93,3.07,MR,1730352468
368,sampit,-2.5333,112.95,33.09,54,100,0.7,ID,1730352469
369,bethanie,-26.4833,17.15,20.68,22,0,2.65,NA,1730352470
370,florence,43.7667,11.25,16.16,66,1,1.36,IT,1730352471
371,kiama,-34.6833,150.8667,21.99,76,80,0.89,AU,1730352472
372,benjamin constant,-4.3831,-70.0311,24.07,80,96,1.14,BR,1730352474
373,togur,58.3631,82.8265,-1.36,77,86,1.48,RU,1730352475
374,mesoraca,39.0768,16.7889,13.18,76,0,2.16,IT,1730352476
375,laguna,38.421,-121.4238,14.1,68,100,2.57,US,1730352477
376,san buenaventura,27.0833,-101.5333,26.15,52,0,1.22,MX,1730352478
377,stephenville,32.2207,-98.2023,24.07,71,0,3.6,US,1730352479
378,kismayo,-0.3582,42.5454,27.17,70,95,3.7,SO,1730352480
379,badger,64.8,-147.5333,-14.8,83,40,3.09,US,1730352481
380,srandakan,-7.9386,110.2506,29.87,67,96,4.87,ID,1730352482
381,utrik,11.2278,169.8474,28.62,77,100,5.52,MH,1730352484
382,posto fiscal rolim de moura,-13.0833,-62.2667,24.23,73,56,0.6,BR,1730352485
383,manga,11.6636,-1.0731,24.82,45,74,1.27,BF,1730352486
384,berre-l'etang,43.4781,5.1704,14.11,82,0,1.03,FR,1730352487
385,polyarnyy,69.1989,33.4478,-0.49,78,88,8.96,RU,1730352488
386,i-n-salah,27.1935,2.4607,25.22,22,66,3.3,DZ,1730352489
387,puerto deseado,-47.7503,-65.8938,13.13,59,100,2.71,AR,1730352490
388,n'zeto,-7.2312,12.8666,24.49,82,96,3.03,AO,1730352491
389,takeo,10.9167,104.8333,32.0,57,100,2.67,KH,1730352493
390,belmonte,-15.8631,-38.8828,22.38,91,97,1.7,BR,1730352494
391,ust-tsilma,65.441,52.1498,2.28,78,100,6.03,RU,1730352495
392,kitimat,54.0524,-128.6534,6.06,28,100,1.12,CA,1730352496
393,shalqar,47.8333,59.6,3.06,96,100,0.94,KZ,1730352497
394,saint-pierre,-21.3393,55.4781,26.82,54,0,2.06,RE,1730352498
395,fort mcmurray,56.7268,-111.381,-5.23,86,100,2.06,CA,1730352499
396,mumford,5.2618,-0.759,24.83,88,52,1.6,GH,1730352500
397,luderitz,-26.6481,15.1594,20.16,51,0,3.25,NA,1730352501
398,gaspe,48.8334,-64.4819,10.12,81,100,2.06,CA,1730352503
399,erenhot,43.6475,111.9767,10.81,37,0,5.33,CN,1730352504
400,ardestan,33.3761,52.3694,14.58,31,100,1.02,IR,1730352505
401,sakakah,29.9697,40.2064,16.76,44,1,2.51,SA,1730352506
402,nadym,65.5333,72.5167,-5.04,90,99,4.56,RU,1730352507
403,sile,41.1754,29.6133,13.96,74,33,4.33,TR,1730352508
404,makinsk,52.6292,70.4169,2.03,81,99,3.3,KZ,1730352509
405,bhimunipatnam,17.8833,83.4333,30.73,68,30,0.84,IN,1730352511
406,yangambi,0.8102,24.4336,21.2,99,100,0.67,CD,1730352512
407,afaahiti,-17.75,-149.2833,23.13,69,54,7.04,PF,1730352513
408,kinston,35.2627,-77.5816,16.81,94,0,0.0,US,1730352399
409,zalingei,12.9096,23.4741,21.74,30,6,1.77,SD,1730352515
410,konarka,19.9,86.1167,29.74,63,0,2.55,IN,1730352516
411,guijuelo,40.5576,-5.6707,10.18,92,100,1.58,ES,1730352517
412,quibala,-10.7337,14.98,17.17,98,99,1.0,AO,1730352518
413,inarajan village,13.2736,144.7484,31.54,81,7,8.12,GU,1730352519
414,mount isa,-20.7333,139.5,38.87,11,35,5.66,AU,1730352521
415,pimentel,-6.8367,-79.9342,18.16,77,0,5.14,PE,1730352522
416,graaff-reinet,-32.2522,24.5308,12.18,80,0,0.51,ZA,1730352523
417,nikolayevsk-on-amure,53.1406,140.73,-1.11,64,55,4.84,RU,1730352524
418,formosa do rio preto,-11.0483,-45.1931,22.3,86,100,1.93,BR,1730352525
419,buckhannon,38.994,-80.232,16.27,79,76,1.95,US,1730352526
420,selfoss,63.9331,-20.9971,2.25,75,99,4.03,IS,1730352527
421,gaalkacyo,6.7697,47.4308,25.93,61,6,5.58,SO,1730352528
422,shimoda,34.6667,138.95,19.35,63,99,3.68,JP,1730352530
423,mokhsogollokh,61.4681,128.9203,-13.06,78,32,0.63,RU,1730352531
424,governador valadares,-18.8511,-41.9494,20.96,93,100,0.54,BR,1730352532
425,capelinha,-17.6914,-42.5158,15.9,99,100,1.01,BR,1730352533
426,lawas,13.764,121.0566,26.49,90,100,6.35,PH,1730352534
427,dryden,49.7833,-92.7503,0.16,74,20,1.03,CA,1730352535
428,vila velha,-20.3297,-40.2925,22.19,93,75,4.02,BR,1730352537
429,jizzax,40.1158,67.8422,13.47,50,13,0.6,UZ,1730352538
430,port augusta,-32.5,137.7667,25.84,28,0,7.44,AU,1730352542
431,mossel bay,-34.1831,22.146,14.96,71,0,3.42,ZA,1730352543
432,ambon,-3.6954,128.1814,32.08,74,40,4.12,ID,1730352545
433,soio,-6.1349,12.3689,24.24,83,100,2.06,AO,1730352546
434,monte carmelo,-18.7247,-47.4986,18.88,88,80,2.2,BR,1730352547
435,urangan,-25.3,152.9,23.39,75,2,10.32,AU,1730352548
436,bedesa,8.9,40.7833,19.3,78,97,0.73,ET,1730352549
437,touba,8.2833,-7.6833,21.13,95,69,0.71,CI,1730352550
438,palmer,42.1584,-72.3287,14.73,71,0,0.0,US,1730352551
439,aljezur,37.3191,-8.8033,14.34,86,90,4.52,PT,1730352552
440,raja,8.4596,25.678,23.0,63,100,0.89,SS,1730352554
441,timbuktu,16.7735,-3.0074,27.35,15,87,3.1,ML,1730352555
442,san martin de los andes,-40.1604,-71.3486,5.41,94,1,2.55,AR,1730352556
443,yuzhno-kurilsk,44.0306,145.8556,10.26,64,7,9.51,RU,1730352557
444,dongola,19.1667,30.4833,19.18,37,0,3.65,SD,1730352558
445,road town,18.4167,-64.6167,25.01,81,100,7.95,VG,1730352559
446,santa cruz,-17.8,-63.1667,24.7,94,20,2.57,BO,1730352561
447,sandikli,38.4647,30.2695,5.96,81,3,2.63,TR,1730352562
448,camiri,-20.05,-63.5167,22.8,68,85,1.04,BO,1730352563
449,nizao,18.25,-70.2,23.3,79,90,6.72,DO,1730352564
450,weno,7.4515,151.8468,31.97,74,100,2.06,FM,1730352566
451,canutama,-6.5339,-64.3831,27.9,59,99,1.7,BR,1730352567
452,natal,-5.795,-35.2094,25.12,83,40,4.12,BR,1730352568
453,guatire,10.4762,-66.5427,21.64,96,100,1.33,VE,1730352569
454,baruun-urt,46.6806,113.2792,5.46,68,43,2.28,MN,1730352571
455,mana,5.6592,-53.7767,25.91,86,5,2.91,GF,1730352572
456,ha giang,22.8333,104.9833,31.14,51,8,1.49,VN,1730352573
457,lerwick,60.1545,-1.1494,11.7,93,100,14.16,GB,1730352574
458,naze,28.3667,129.4833,25.51,88,100,6.38,JP,1730352575
459,loudi,27.7344,111.9944,24.33,36,0,4.03,CN,1730352576
460,saint-hilaire-de-riez,46.7167,-1.95,12.1,84,0,5.49,FR,1730352577
461,qui nhon,13.7667,109.2333,28.23,78,68,3.17,VN,1730352580
462,bardai,11.65,7.2333,18.96,26,64,3.93,NG,1730352581
463,aransas pass,27.9095,-97.15,27.02,91,0,4.63,US,1730352582
464,al ghayzah,16.2079,52.176,28.03,52,3,0.62,YE,1730352583
465,fuling,29.7022,107.3919,22.4,58,95,1.64,CN,1730352584
466,new norfolk,-42.7826,147.0587,16.07,28,39,2.78,AU,1730352585
467,salahonda,2.1019,-78.7217,25.55,84,100,5.46,CO,1730352586
468,severo-yeniseyskiy,60.3725,93.0408,-6.68,94,100,0.67,RU,1730352588
469,ust-nera,64.5667,143.2,-19.88,98,95,1.72,RU,1730352589
470,antofagasta,-23.65,-70.4,16.6,92,66,2.28,CL,1730352590
471,puerto madryn,-42.7692,-65.0385,15.1,77,22,4.14,AR,1730352591
472,jining,35.405,116.5814,21.16,41,100,2.0,CN,1730352592
473,usogorsk,63.4106,48.6872,0.47,96,100,5.05,RU,1730352593
474,namibe,-15.1961,12.1522,18.01,70,79,1.48,AO,1730352594
475,castillos,-34.1667,-53.8333,16.61,96,33,3.29,UY,1730352595
476,seminole,28.7086,-81.2081,22.9,81,100,3.09,US,1730352596
477,camrose,53.0168,-112.8353,0.24,74,12,3.3,CA,1730352598
478,ouadda,8.0777,22.4007,21.48,69,63,0.56,CF,1730352599
479,hami,42.8,93.45,12.81,32,16,3.36,CN,1730352600
480,smithers,54.7804,-127.1743,3.18,100,100,1.03,CA,1730352601
481,santa vitoria do palmar,-33.5189,-53.3681,17.57,92,7,4.53,BR,1730352602
482,villa paula de sarmiento,-31.4933,-68.5384,27.47,32,32,9.31,AR,1730352603
483,ciudad lazaro cardenas,17.9583,-102.2,25.46,88,72,1.43,MX,1730352604
484,touros,-5.1989,-35.4608,24.84,79,60,5.26,BR,1730352605
485,shadegan,30.6497,48.6647,25.09,30,100,2.01,IR,1730352606
486,skovorodino,53.9833,123.9167,0.53,73,100,2.26,RU,1730352607
487,zaozersk,69.4005,32.4476,-2.06,79,57,9.16,RU,1730352609
488,chernomorskoye,45.5039,32.6997,15.46,75,95,4.01,UA,1730352610
489,eyl,7.9803,49.8164,27.67,59,6,5.88,SO,1730352612
490,brecon,51.9461,-3.3889,7.45,94,2,0.6,GB,1730352613
491,mancio lima,-7.6142,-72.8958,23.93,74,79,1.46,BR,1730352614
492,pak chong,14.708,101.4161,28.38,73,29,2.49,TH,1730352615
493,ca mau,9.1769,105.15,31.53,62,40,5.19,VN,1730352616
494,bakanas,44.8081,76.2772,12.12,40,66,2.49,KZ,1730352618
495,revda,56.801,59.9303,1.32,61,8,2.97,RU,1730352619
496,hernando,28.5419,-82.4582,21.53,89,0,3.09,US,1730352620
497,ixtapa,20.7,-105.2,25.13,83,0,2.57,MX,1730352621
498,kimbe,-5.5502,150.1429,27.37,85,54,0.22,PG,1730352622
499,puerto ayacucho,5.6639,-67.6236,24.33,87,68,1.33,VE,1730352623
500,center,31.5107,-96.4247,25.22,79,75,6.69,US,1730352624
501,tindouf,27.6711,-8.1474,15.41,52,96,1.93,DZ,1730352625
502,paraiso,9.8383,-83.8656,18.01,94,100,0.32,CR,1730352627
503,sari,36.5633,53.0601,13.77,82,0,1.03,IR,1730352628
504,westerland,54.9079,8.3033,13.01,82,100,7.2,DE,1730352629
505,fuglafjordur,62.244,-6.814,7.08,93,100,4.08,FO,1730352630
506,lascano,-33.6667,-54.2,15.02,98,58,2.94,UY,1730352631
507,guerrero negro,27.9769,-114.0611,16.88,79,0,4.32,MX,1730352632
508,yopal,5.3378,-72.3959,21.15,76,78,1.87,CO,1730352633
509,aykol,38.1751,77.2132,15.68,24,0,2.4,CN,1730352634
510,tehuitzingo,18.3306,-98.2764,21.0,81,3,1.06,MX,1730352636
511,colonia,50.9333,6.95,12.2,89,100,1.03,DE,1730352637
512,thunder bay,48.4001,-89.3168,-1.01,100,75,1.54,CA,1730352638
513,nova sintra,14.8667,-24.7167,25.77,79,100,5.18,CV,1730352640
514,buenaventura,3.8801,-77.0312,23.32,98,100,0.92,CO,1730352639
515,baturaja,-4.1333,104.1667,36.96,35,96,1.69,ID,1730352642
516,labytnangi,66.6572,66.4183,-4.71,96,99,1.75,RU,1730352643
517,katsuura,35.1333,140.3,18.93,65,90,3.49,JP,1730352644
518,guiuan,11.0333,125.7247,28.82,81,100,5.06,PH,1730352645
519,mandalgovi,45.7625,106.2708,3.08,37,37,3.14,MN,1730352647
520,bucerias,20.75,-105.3333,25.55,83,0,2.57,MX,1730352648
521,rawson,-43.3002,-65.1023,13.16,88,0,3.6,AR,1730352649
522,salalah,17.0151,54.0924,29.05,58,0,1.03,OM,1730352650
523,victorica,-36.2151,-65.4359,18.79,80,85,5.5,AR,1730352651
524,karwar,14.8,74.1333,28.76,73,22,1.58,IN,1730352652
525,bonthe,7.5264,-12.505,24.25,93,100,3.08,SL,1730352653
526,enriquillo,17.9,-71.2333,23.54,84,99,5.18,DO,1730352654
527,atasu,48.6814,71.6433,5.92,76,100,8.38,KZ,1730352656
528,thulamahashi,-24.7246,31.1994,21.4,55,76,4.65,ZA,1730352657
529,jinka,5.65,36.65,21.91,63,94,1.36,ET,1730352658
530,yarmouth,41.7057,-70.2286,16.19,95,0,5.66,US,1730352659
531,ghanzi,-21.5667,21.7833,24.16,16,0,5.94,BW,1730352660
532,goshen,41.5823,-85.8344,19.9,65,0,7.72,US,1730352661
533,wynyard,-41.0,145.7167,17.88,46,19,0.89,AU,1730352662
534,taro,-8.3862,115.28,29.26,63,47,1.56,ID,1730352663
535,horta,38.5333,-28.6333,20.01,90,28,6.71,PT,1730352665
536,lodwar,3.1191,35.5973,32.08,29,21,3.51,KE,1730352666
537,aitape,-3.1374,142.3475,28.68,79,48,0.97,PG,1730352667
538,ziniare,12.5822,-1.2983,24.43,33,31,2.53,BF,1730352668
539,ewo,-0.8725,14.8206,23.11,93,100,2.31,CG,1730352669
540,berdigestyakh,62.0989,126.6992,-14.67,94,79,0.48,RU,1730352670
541,champerico,14.3,-91.9167,27.18,79,63,2.77,GT,1730352671
542,selkirk,50.1436,-96.8845,0.06,53,1,1.48,CA,1730352672
543,sergeyevka,53.88,67.4158,3.18,76,99,3.58,KZ,1730352674
544,mazagao,-0.115,-51.2894,24.1,89,74,1.75,BR,1730352675
545,lata,40.1629,-8.3327,11.86,89,68,2.42,PT,1730352676
546,antonio enes,-16.2325,39.9086,27.97,69,78,4.41,MZ,1730352677
547,balcarce,-37.8462,-58.2552,17.68,92,100,3.64,AR,1730352678
548,kirkkonummi,60.1238,24.4385,4.32,82,73,5.14,FI,1730352679
549,sinabang,2.4803,96.3801,30.35,65,70,1.58,ID,1730352680
550,kuala tungkal,-0.8167,103.4667,32.39,56,94,0.59,ID,1730352681
551,norfolk county,42.1668,-71.2495,15.51,90,100,0.45,US,1730352682
552,chinde,26.8212,87.7095,27.42,59,17,3.0,NP,1730352684
553,kokshetau,53.2775,69.3883,2.18,87,75,4.0,KZ,1730352685
554,kenora,49.8167,-94.4337,-0.46,80,0,3.09,CA,1730352686
555,kiunga,-6.1219,141.2906,26.86,85,96,1.51,PG,1730352687
556,suva,-18.1416,178.4415,26.71,78,75,4.12,FJ,1730352688
557,paita,-5.0892,-81.1144,17.01,83,28,5.12,PE,1730352689
558,versailles,48.8,2.1333,11.14,96,100,3.6,FR,1730352690
559,awjilah,29.1081,21.2869,16.76,75,0,3.94,LY,1730352691
560,coquimbo,-29.9533,-71.3436,13.85,97,100,1.03,CL,1730352693
561,northam,51.0333,-4.2167,10.59,87,27,1.96,GB,1730352694
562,salinas,36.6777,-121.6555,11.02,79,0,2.06,US,1730352584
563,maturin,9.75,-63.1767,25.91,94,41,1.03,VE,1730352696
564,westport,41.1415,-73.3579,17.53,90,0,2.57,US,1730352697
565,kribi,2.95,9.9167,24.37,92,81,1.36,CM,1730352698
566,tralee,52.2704,-9.7026,12.07,87,99,0.99,IE,1730352699
567,tual,-5.6667,132.75,29.35,70,94,3.09,ID,1730352700
568,kaya,13.0917,-1.0844,24.85,26,60,2.19,BF,1730352701
569,villa del totoral,-30.8167,-63.7167,22.02,44,43,1.91,AR,1730352702
570,sandnessjoen,66.0217,12.6316,2.06,87,75,4.63,NO,1730352704
571,monitos,8.25,-76.05,24.05,91,100,2.02,CO,1730352706
572,kerikeri,-35.2268,173.9474,19.39,62,9,2.68,NZ,1730352708
573,opuwo,-18.0607,13.84,23.79,15,5,1.35,NA,1730352709
